[{"Id":"dbdd301f-1233-44a8-b219-8a5b6d0f28cb","Number":1,"Cells":{"global_id":14172711,"Name":"Международный автовокзал «Южные ворота»","AdmArea":"Южный административный округ","District":"район Братеево","Address":"МКАД, 19-й километр, владение 20, строение 1","MetroStation":"Алма-Атинская","MetroLine":"Замоскворецкая линия","WiFiAvailability":"есть","BabyCareRoom":"есть","SanitationFacilities":"13","PublicPhone":[{"Phone":["(499) 940-08-43"]},{"Phone":["(800) 200-08-41"]}],"WebSite":"av.mos.ru","WorkingHours":[{"DayOfWeek":"понедельник","Hours":"07:00-00:00"},{"DayOfWeek":"вторник","Hours":"07:00-00:00"},{"DayOfWeek":"среда","Hours":"07:00-00:00"},{"DayOfWeek":"четверг","Hours":"07:00-00:00"},{"DayOfWeek":"пятница","Hours":"07:00-00:00"},{"DayOfWeek":"суббота","Hours":"07:00-00:00"},{"DayOfWeek":"воскресенье","Hours":"07:00-00:00"}],"BusDestination":"Волжский, Пенза, Чебоксары,Кисловодск,Волгодонск,Астрахань, Минск, Элиста,Ростов-на-Дону, Шуя, Краснодар, Флорешты, Кишинев","LocationComment":"От метро «Алма-Атинская» организован новый городской автобусный маршрут ГУП «Мосгортранс» № 899. От станций метро «Братиславская», «Марьино», «Алма-Атинская», «Красногвардейская», «Домодедовская», «Царицыно», «Выхино» курсируют бесплатные маршрутные такси до ТК «Южные ворота».","Latitude_WGS84":"55.622492","Longitude_WGS84":"37.786581"}}, {"Id":"4a50807d-f260-486f-9152-f4440def9dab","Number":2,"Cells":{"global_id":14172647,"Name":"Автостанция «Варшавская»","AdmArea":"Южный административный округ","District":"район Нагатино-Садовники","Address":"Каширский проезд, владение 19","MetroStation":"Варшавская","MetroLine":"Каховская линия","WiFiAvailability":"есть","BabyCareRoom":"есть","SanitationFacilities":"9","PublicPhone":[{"Phone":["(499) 940-08-43"]},{"Phone":["(800) 200-08-41"]}],"WebSite":"av.mos.ru","WorkingHours":[{"DayOfWeek":"понедельник","Hours":"06:00-00:00"},{"DayOfWeek":"вторник","Hours":"06:00-00:00"},{"DayOfWeek":"среда","Hours":"06:00-00:00"},{"DayOfWeek":"четверг","Hours":"06:00-00:00"},{"DayOfWeek":"пятница","Hours":"06:00-00:00"},{"DayOfWeek":"суббота","Hours":"06:00-00:00"},{"DayOfWeek":"воскресенье","Hours":"06:00-00:00"}],"BusDestination":"Воронеж, Тамбов, Тула, Липецк, Белгород, Ростов-на-Дону","LocationComment":"От метро «Варшавская»: последний вагон, если ехать от станции метро «Каширская». Выход из метро в сторону пригородных поездов. После выхода из вестибюля метро, не поднимаясь наверх, спуститься и пройти по подземному переходу под железной дорогой в сторону Каширского проезда. Выход из подземного перехода налево. После подъёма на улицу повернуть направо. На Каширском проезде повернуть налево, пройти около 300 метров до наземного пешеходного перехода. Далее перейти проезжую часть и вернуться по Каширскому проезду около 70 метров до дома 19.","Latitude_WGS84":"55.655925","Longitude_WGS84":"37.624965"}}, {"Id":"d8d63708-4dcd-4969-b8fa-971f039a35ba","Number":3,"Cells":{"global_id":14172683,"Name":"«Центральный автовокзал»","AdmArea":"Восточный административный округ","District":"район Гольяново","Address":"Уральская улица, дом 2","MetroStation":"Щёлковская","MetroLine":"Арбатско-Покровская линия","WiFiAvailability":"есть","BabyCareRoom":"есть","SanitationFacilities":"есть","PublicPhone":[{"Phone":["(499) 748-87-18"]}],"WebSite":"mosoblvokzaly.ru","WorkingHours":[{"DayOfWeek":"понедельник","Hours":"05:30-00:00"},{"DayOfWeek":"вторник","Hours":"05:30-00:00"},{"DayOfWeek":"среда","Hours":"05:30-00:00"},{"DayOfWeek":"четверг","Hours":"05:30-00:00"},{"DayOfWeek":"пятница","Hours":"05:30-00:00"},{"DayOfWeek":"суббота","Hours":"05:30-00:00"},{"DayOfWeek":"воскресенье","Hours":"05:30-00:00"}],"BusDestination":"Тамбовская обл. (Моршанск, Тамбов), Тульская обл. (Алексин, Тула, Богородицк, Епифань, Ефремов, Кимовск, Краинка, Куркино, Новомосковск, Щекино), Владимирская обл., (Владимир, Вязники, Выкса, Гусь-Хрустальный, Красная Горбатка, Кольчугино, Муром, Юрьев Польский), Смоленская обл. (Вязьма, Всходы, Рославль, Десногорск), Ярославская обл. (Гаврилов Ям, Переславль, Тугаев, Углич, Рыбинск, Кострома, Ярославль), Липецкая обл. (Данков, Липецк), Пензенская обл. (Пенза, Сердобск), Нижегородская обл. (Нижний Новгород, Заволжье), Ростов на Дону, Псков, Рязанская обл. (Рязань, Касимов, Шацк, Ухолово, Сараи, Сапожок, Скопин, Кадом), Чувашская Республика (Чебоксары, Алатырь), Санкт- Петербург, Ивановская обл. (Иваново, Шуя, Вичуга, Палех, Приволжск, Южа), Таганрог (Ростовская обл.), Ставропольский край (Ставрополь, Владикавказ), Самара, республика Мордовия (Саранск, Темников), Геленджик, республика Марий Эл (Йошкар-Ола, Косьмодемьянск), Череповец (Вологодская обл.)","LocationComment":"От метро «Щелковская»: первый вагон из центра, выход в сторону Уральской улицы. Автовокзал расположен справа по Щелковскому шоссе в сторону области.","Latitude_WGS84":"55.811042","Longitude_WGS84":"37.799661"}}, {"Id":"ce6c65a8-9471-4503-a0de-6a80a98da768","Number":4,"Cells":{"global_id":14172836,"Name":"Автостанция «Орехово»","AdmArea":"Южный административный округ","District":"район Орехово-Борисово Северное","Address":"Шипиловский проезд, дом 12","MetroStation":"Орехово","MetroLine":"Замоскворецкая линия","WiFiAvailability":"есть","BabyCareRoom":"нет","SanitationFacilities":"6","PublicPhone":[{"Phone":["(499) 940-08-43"]},{"Phone":["(800) 200-08-41"]}],"WebSite":"av.mos.ru","WorkingHours":[{"DayOfWeek":"понедельник","Hours":"06:30-23:00"},{"DayOfWeek":"вторник","Hours":"06:30-23:00"},{"DayOfWeek":"среда","Hours":"06:30-23:00"},{"DayOfWeek":"четверг","Hours":"06:30-23:00"},{"DayOfWeek":"пятница","Hours":"06:30-23:00"},{"DayOfWeek":"суббота","Hours":"06:30-23:00"},{"DayOfWeek":"воскресенье","Hours":"06:30-23:00"}],"BusDestination":"Астрахань, Кисловодск, Ростов-на-Дону, Ефремов, Элиста, Ставрополь","LocationComment":"От метро «Орехово»: последний вагон из центра. Выход из метро по ступенькам, а не по эскалатору. При выходе из стеклянных дверей метро повернуть направо.","Latitude_WGS84":"55.614688","Longitude_WGS84":"37.693336"}}, {"Id":"f74d6fe6-d2ae-4987-8bad-6f75f68031d3","Number":5,"Cells":{"global_id":14172893,"Name":"Автостанция «Тушинская»","AdmArea":"Северо-Западный административный округ","District":"район Покровское-Стрешнево","Address":"проезд Стратонавтов, дом 5-7","MetroStation":"Тушинская","MetroLine":"Таганско-Краснопресненская линия","WiFiAvailability":"есть","BabyCareRoom":"нет","SanitationFacilities":"8","PublicPhone":[{"Phone":["(499) 940-08-43"]},{"Phone":["(800) 200-08-41"]}],"WebSite":"av.mos.ru","WorkingHours":[{"DayOfWeek":"понедельник","Hours":"06:00-23:00"},{"DayOfWeek":"вторник","Hours":"06:00-23:00"},{"DayOfWeek":"среда","Hours":"06:00-23:00"},{"DayOfWeek":"четверг","Hours":"06:00-23:00"},{"DayOfWeek":"пятница","Hours":"06:00-23:00"},{"DayOfWeek":"суббота","Hours":"06:00-23:00"},{"DayOfWeek":"воскресенье","Hours":"06:00-23:00"}],"BusDestination":"Рига, Таллин, Великие Луки, Волоколамск, Лотошино, Осташков, Ржев, Старица, Шаховская, Псков, Дорогобуж, Ярцево, Ржев, Санкт-Петербург, Дедовск, Истра, Павловская Слобода, Холм-Жирковский, Верея, Кашин, Конаково, Весьегонск, Кашин, Торопец, Руза (через Звенигород), Руза (через Никольское)","LocationComment":"От метро «Тушинская»: первый вагон из центра. По эскалатору подняться наверх. При выходе из стеклянных дверей метро повернуть направо и сразу на перекрестке подземного перехода повернуть еще раз направо. Далее пройти по переходу около 10 метров, подняться по лестнице наверх и повернуть налево. Идти прямо по проезду Стратонавтов, вдоль железной дороги, по направлению к ж/д станции до автостанции «Тушинская».","Latitude_WGS84":"55.827034","Longitude_WGS84":"37.440263"}}, {"Id":"b8a582ec-3b21-429b-9cd3-39ddc8fae45a","Number":6,"Cells":{"global_id":14172681,"Name":"Автостанция «Новоясеневская»","AdmArea":"Юго-Западный административный округ","District":"район Ясенево","Address":"Новоясеневский тупик, владение 4","MetroStation":"Новоясеневская","MetroLine":"Калужско-Рижская линия","WiFiAvailability":"нет","BabyCareRoom":"есть","SanitationFacilities":"есть","PublicPhone":[{"Phone":["(495) 426-87-51"]},{"Phone":["(967) 079-87-24"]}],"WebSite":"russbusline.ru/passangers/moscow/avtobusnaya-stantsiya-novoyasenevskaya/","WorkingHours":[{"DayOfWeek":"понедельник","Hours":"06:00-00:00"},{"DayOfWeek":"вторник","Hours":"06:00-00:00"},{"DayOfWeek":"среда","Hours":"06:00-00:00"},{"DayOfWeek":"четверг","Hours":"06:00-00:00"},{"DayOfWeek":"пятница","Hours":"06:00-00:00"},{"DayOfWeek":"суббота","Hours":"06:00-00:00"},{"DayOfWeek":"воскресенье","Hours":"06:00-00:00"}],"BusDestination":"Ростов на Дону, Тула, Воронеж, Саратов, Липецк, Елец (Липецкая обл.), Донецк, Славянск, Геленджик, Днепропетровск, Санкт-Петербург и другие","LocationComment":"Станция метро «Новоясеневская», первый вагон из центра. Станция метро «Битцевский Парк», последний вагон из центра.","Latitude_WGS84":"55.598421","Longitude_WGS84":"37.554223"}}, {"Id":"2f33cf8c-0de7-481e-8bed-7e615f1864af","Number":7,"Cells":{"global_id":14172663,"Name":"Автостанция «Красногвардейская»","AdmArea":"Южный административный округ","District":"район Зябликово","Address":"Ореховый бульвар, владение 24, корпус 1Г","MetroStation":"Красногвардейская","MetroLine":"Замоскворецкая линия","WiFiAvailability":"есть","BabyCareRoom":"есть","SanitationFacilities":"16","PublicPhone":[{"Phone":["(499) 940-08-43"]},{"Phone":["(800) 200-08-41"]}],"WebSite":"av.mos.ru","WorkingHours":[{"DayOfWeek":"понедельник","Hours":"06:00-00:00"},{"DayOfWeek":"вторник","Hours":"06:00-00:00"},{"DayOfWeek":"среда","Hours":"06:00-00:00"},{"DayOfWeek":"четверг","Hours":"06:00-00:00"},{"DayOfWeek":"пятница","Hours":"06:00-00:00"},{"DayOfWeek":"суббота","Hours":"06:00-00:00"},{"DayOfWeek":"воскресенье","Hours":"06:00-00:00"}],"BusDestination":"Алексин, Волгодонск, Кашира, Корсаково, Ставрополь, Северодонецк, Венев, Ливны, Геленджик, Богородицк, Саратов, Балаково, Ступино, Элиста, Михайлов, Белев, Орел, Кисловодск, Плавск, Серебреные Пруды, Борисоглебск, Озеры, Ростов -на-Дону, Ефремов, Липки, Волгоград, Суворовская, Ясногорск, Элиста, Поворино, Губкин, Санкт-Петербург, Ялта, Лисичанск, Россошь, Глодяны, Севастополь, Харьков, Кораблино, Донецк, Белгород, Астрахань, Новочебоксарск, Луганск, Волжск","LocationComment":"От метро «Красногвардейская»: первый вагон из центра. При выходе из стеклянных дверей метро повернуть направо, далее, пройдя пять метров по подземному переходу, повернуть налево и подняться по лестнице. Автостанция «Красногвардейская» находится с правой стороны по ходу движения. От метро «Зябликово»: последний вагон из центра. При выходе из стеклянных дверей метро повернуть налево, далее, пройдя пять метров по подземному переходу, повернуть налево и подняться по лестнице. Автостанция «Красногвардейская» находится с правой стороны по ходу движения.","Latitude_WGS84":"55.612721","Longitude_WGS84":"37.746921"}}, {"Id":"16c1a7f5-4815-457e-b208-89a760b9befe","Number":8,"Cells":{"global_id":14172887,"Name":"Автостанция «Теплый стан»","AdmArea":"Юго-Западный административный округ","District":"район Ясенево","Address":"Новоясеневский проспект, напротив  дома 4, строения 4","MetroStation":"Тёплый стан","MetroLine":"Калужско-Рижская линия","WiFiAvailability":"есть","BabyCareRoom":"есть","SanitationFacilities":"8","PublicPhone":[{"Phone":["(499) 940-08-43"]},{"Phone":["(800) 200-08-41"]}],"WebSite":"av.mos.ru","WorkingHours":[{"DayOfWeek":"понедельник","Hours":"06:00-00:00"},{"DayOfWeek":"вторник","Hours":"06:00-00:00"},{"DayOfWeek":"среда","Hours":"06:00-00:00"},{"DayOfWeek":"четверг","Hours":"06:00-00:00"},{"DayOfWeek":"пятница","Hours":"06:00-00:00"},{"DayOfWeek":"суббота","Hours":"06:00-00:00"},{"DayOfWeek":"воскресенье","Hours":"06:00-00:00"}],"BusDestination":"Кишинев, Ефремов, Бетлица, Киров, Юхнов, Думиничи, Козельск, Сосенский, поселок Заречье, Брянск, Сухиничи, Ливны, Борисоглебск, Ельня, Гагарин, Вязьма, Кондрово, Элиста, Мценск, Хвастовичи, Таруса, Брянск, Дятьково, Людиново, Кагул, Чадыр-Лунга, Сорока, Киев, Жуковка, Мещовск, Козельск, Сосенский, п.Заречье,Элиста, Валуйки, Киреевск, Брянск, Калуга, Липканы, Белев, Новозыбков, Кагул, Дербент, Погар, Луганск, Черновцы.","LocationComment":"От метро «Теплый Стан»: первый вагон из центра. При выходе из стеклянных дверей метро повернуть направо, далее, пройдя до конца подземного перехода, повернуть налево и подняться по лестнице. Идти по Новоясеневскому проспекту около 250 метров прямо до автостанции «Теплый Стан».","Latitude_WGS84":"55.615787","Longitude_WGS84":"37.510547"}}]